,stop_id,direction_id,destination,headway_time_sec,stop_name,stop_desc,line
0,70001,0,Forest Hills,1056.1379310344828,Forest Hills,Forest Hills - Orange Line,orange
1,70001,1,Oak Grove,512.2139113752281,Forest Hills,Forest Hills - Orange Line,orange
2,70002,0,Forest Hills,519.7183603951403,Green Street,Green Street - Orange Line - Forest Hills,orange
3,70003,1,Oak Grove,514.1178365780094,Green Street,Green Street - Orange Line - Oak Grove,orange
4,70004,0,Forest Hills,519.0194278443046,Stony Brook,Stony Brook - Orange Line - Forest Hills,orange
5,70005,1,Oak Grove,516.5781483663388,Stony Brook,Stony Brook - Orange Line - Oak Grove,orange
6,70006,0,Forest Hills,515.5577563021379,Jackson Square,Jackson Square - Orange Line - Forest Hills,orange
7,70007,1,Oak Grove,518.8814934337322,Jackson Square,Jackson Square - Orange Line - Oak Grove,orange
8,70008,0,Forest Hills,513.6338483813316,Roxbury Crossing,Roxbury Crossing - Orange Line - Forest Hills,orange
9,70009,1,Oak Grove,518.7866597979707,Roxbury Crossing,Roxbury Crossing - Orange Line - Oak Grove,orange
10,70010,0,Forest Hills,512.7407181019651,Ruggles,Ruggles - Orange Line - Forest Hills,orange
11,70011,1,Oak Grove,517.8109693075091,Ruggles,Ruggles - Orange Line - Oak Grove,orange
12,70012,0,Forest Hills,518.6810078123261,Massachusetts Avenue,Massachusetts Avenue - Orange Line - Forest Hills,orange
13,70013,1,Oak Grove,523.4476666153271,Massachusetts Avenue,Massachusetts Avenue - Orange Line - Oak Grove,orange
14,70014,0,Forest Hills,518.8030329983101,Back Bay,Back Bay - Orange Line - Forest Hills,orange
15,70015,1,Oak Grove,523.974802940395,Back Bay,Back Bay - Orange Line - Oak Grove,orange
16,70016,0,Forest Hills,525.9376592566558,Tufts Medical Center,Tufts Medical Center - Orange Line - Forest Hills,orange
17,70017,1,Oak Grove,529.8216380621334,Tufts Medical Center,Tufts Medical Center - Orange Line - Oak Grove,orange
18,70018,0,Forest Hills,526.2449194574903,Chinatown,Chinatown - Orange Line - Forest Hills,orange
19,70019,1,Oak Grove,530.1968404560885,Chinatown,Chinatown - Orange Line - Oak Grove,orange
20,70020,0,Forest Hills,526.2877622147695,Downtown Crossing,Downtown Crossing - Orange Line - Forest Hills,orange
21,70021,1,Oak Grove,526.154596434572,Downtown Crossing,Downtown Crossing - Orange Line - Oak Grove,orange
22,70022,0,Forest Hills,529.6562452407371,State,State - Orange Line - Forest Hills,orange
23,70023,1,Oak Grove,526.0230493351994,State,State - Orange Line - Oak Grove,orange
24,70024,0,Forest Hills,529.6379750147165,Haymarket,Haymarket - Orange Line - Forest Hills,orange
25,70025,1,Oak Grove,525.8578357475258,Haymarket,Haymarket - Orange Line - Oak Grove,orange
26,70026,0,Forest Hills,529.6304366774166,North Station,North Station - Orange Line - Forest Hills,orange
27,70027,1,Oak Grove,525.8164971009736,North Station,North Station - Orange Line - Oak Grove,orange
28,70028,0,Forest Hills,528.1073184589497,Community College,Community College - Orange Line - Forest Hills,orange
29,70029,1,Oak Grove,525.4743786101873,Community College,Community College - Orange Line - Oak Grove,orange
30,70030,0,Forest Hills,522.3999559943893,Sullivan Square,Sullivan Square - Orange Line - Forest Hills,orange
31,70031,1,Oak Grove,517.8497652582159,Sullivan Square,Sullivan Square - Orange Line - Oak Grove,orange
32,70032,0,Forest Hills,527.5515491988879,Wellington,Wellington - Orange Line - Forest Hills,orange
33,70033,1,Oak Grove,522.5792448125883,Wellington,Wellington - Orange Line - Oak Grove,orange
34,70034,0,Forest Hills,529.9347900210263,Malden Center,Malden Center - Orange Line - Forest Hills,orange
35,70035,1,Oak Grove,524.3066888242626,Malden Center,Malden Center - Orange Line - Oak Grove,orange
36,70036,0,Forest Hills,543.4712946351062,Oak Grove,Oak Grove - Orange Line,orange
37,70036,1,Oak Grove,1204.1808510638298,Oak Grove,Oak Grove - Orange Line,orange
38,70038,1,Wonderland,435.4847989539065,Bowdoin,Bowdoin - Blue Line - Wonderland,blue
39,70039,0,Bowdoin,428.51699531163814,Government Center,Government Center - Blue Line - Bowdoin,blue
40,70040,1,Wonderland,433.1389421002675,Government Center,Government Center - Blue Line - Wonderland,blue
41,70041,0,Bowdoin,426.1087833084539,State,State - Blue Line - Bowdoin,blue
42,70042,1,Wonderland,433.397340599831,State,State - Blue Line - Wonderland,blue
43,70043,0,Bowdoin,423.83585320596524,Aquarium,Aquarium - Blue Line - Bowdoin,blue
44,70044,1,Wonderland,433.26751142142916,Aquarium,Aquarium - Blue Line - Wonderland,blue
45,70045,0,Bowdoin,422.8095082249591,Maverick,Maverick - Blue Line - Bowdoin,blue
46,70046,1,Wonderland,432.8188279538358,Maverick,Maverick - Blue Line - Wonderland,blue
47,70047,0,Bowdoin,422.9593149224473,Airport,Airport - Blue Line - Bowdoin,blue
48,70048,1,Wonderland,432.09741190282983,Airport,Airport - Blue Line - Wonderland,blue
49,70049,0,Bowdoin,423.26139461063383,Wood Island,Wood Island - Blue Line - Bowdoin,blue
50,70050,1,Wonderland,431.69860386356567,Wood Island,Wood Island - Blue Line - Wonderland,blue
51,70051,0,Bowdoin,429.84177604223163,Orient Heights,Orient Heights - Blue Line - Bowdoin,blue
52,70052,1,Wonderland,430.7912106910084,Orient Heights,Orient Heights - Blue Line - Wonderland,blue
53,70053,0,Bowdoin,432.5107075279846,Suffolk Downs,Suffolk Downs - Blue Line - Bowdoin,blue
54,70054,1,Wonderland,430.68688504816225,Suffolk Downs,Suffolk Downs - Blue Line - Wonderland,blue
55,70055,0,Bowdoin,432.40242351444925,Beachmont,Beachmont - Blue Line - Bowdoin,blue
56,70056,1,Wonderland,431.0503540248849,Beachmont,Beachmont - Blue Line - Wonderland,blue
57,70057,0,Bowdoin,432.0575809259851,Revere Beach,Revere Beach - Blue Line - Bowdoin,blue
58,70058,1,Wonderland,432.371111684292,Revere Beach,Revere Beach - Blue Line - Wonderland,blue
59,70059,0,Bowdoin,417.2217267936765,Wonderland,Wonderland - Blue Line - Bowdoin,blue
60,70060,0,Bowdoin,602.7264573991031,Wonderland,Wonderland - Blue Line - Exit Only,blue
61,70060,1,Wonderland,676.4666666666667,Wonderland,Wonderland - Blue Line - Exit Only,blue
62,70061,0,Ashmont,723.8380052151239,Alewife,Alewife - Red Line,red
63,70061,0,Braintree,706.757181704086,Alewife,Alewife - Red Line,red
64,70061,0,Southbound,353.15490186745365,Alewife,Alewife - Red Line,red
65,70061,1,Alewife,736.0819672131148,Alewife,Alewife - Red Line,red
66,70063,0,Ashmont,727.4822834645669,Davis,Davis - Red Line - Ashmont/Braintree,red
67,70063,0,Braintree,673.4569748245976,Davis,Davis - Red Line - Ashmont/Braintree,red
68,70063,0,Southbound,354.793761707948,Davis,Davis - Red Line - Ashmont/Braintree,red
69,70064,1,Alewife,360.9223586756979,Davis,Davis - Red Line - Alewife,red
70,70065,0,Ashmont,727.0179745725559,Porter,Porter - Red Line - Ashmont/Braintree,red
71,70065,0,Braintree,672.5707399373343,Porter,Porter - Red Line - Ashmont/Braintree,red
72,70065,0,Southbound,354.5487327549001,Porter,Porter - Red Line - Ashmont/Braintree,red
73,70066,1,Alewife,356.54297816293234,Porter,Porter - Red Line - Alewife,red
74,70067,0,Ashmont,756.5344761417424,Harvard,Harvard - Red Line - Ashmont/Braintree,red
75,70067,0,Braintree,720.511224263892,Harvard,Harvard - Red Line - Ashmont/Braintree,red
76,70067,0,Southbound,375.7179815483916,Harvard,Harvard - Red Line - Ashmont/Braintree,red
77,70068,1,Alewife,357.45693598128753,Harvard,Harvard - Red Line - Alewife,red
78,70069,0,Ashmont,725.7968835131306,Central,Central - Red Line - Ashmont/Braintree,red
79,70069,0,Braintree,679.659803621785,Central,Central - Red Line - Ashmont/Braintree,red
80,70069,0,Southbound,359.5357621489337,Central,Central - Red Line - Ashmont/Braintree,red
81,70070,1,Alewife,358.6716181627188,Central,Central - Red Line - Alewife,red
82,70071,0,Ashmont,727.7358573148047,Kendall/MIT,Kendall/MIT - Red Line - Ashmont/Braintree,red
83,70071,0,Braintree,679.3734149092525,Kendall/MIT,Kendall/MIT - Red Line - Ashmont/Braintree,red
84,70071,0,Southbound,357.6314397967624,Kendall/MIT,Kendall/MIT - Red Line - Ashmont/Braintree,red
85,70072,1,Alewife,358.316600353008,Kendall/MIT,Kendall/MIT - Red Line - Alewife,red
86,70073,0,Ashmont,727.254690226876,Charles/MGH,Charles/MGH - Red Line - Ashmont/Braintree,red
87,70073,0,Braintree,681.3193612774451,Charles/MGH,Charles/MGH - Red Line - Ashmont/Braintree,red
88,70073,0,Southbound,357.37666573203666,Charles/MGH,Charles/MGH - Red Line - Ashmont/Braintree,red
89,70074,1,Alewife,368.55440388893464,Charles/MGH,Charles/MGH - Red Line - Alewife,red
90,70075,0,Ashmont,723.044629183986,Park Street,Park Street - Red Line - Ashmont/Braintree,red
91,70075,0,Braintree,682.8327663264625,Park Street,Park Street - Red Line - Ashmont/Braintree,red
92,70075,0,Southbound,356.5941204918153,Park Street,Park Street - Red Line - Ashmont/Braintree,red
93,70076,1,Alewife,358.57368789780435,Park Street,Park Street - Red Line - Alewife,red
94,70077,0,Ashmont,724.013879709187,Downtown Crossing,Downtown Crossing - Red Line - Ashmont/Braintree,red
95,70077,0,Braintree,682.5073151179104,Downtown Crossing,Downtown Crossing - Red Line - Ashmont/Braintree,red
96,70077,0,Southbound,356.4735970695971,Downtown Crossing,Downtown Crossing - Red Line - Ashmont/Braintree,red
97,70078,1,Alewife,360.26156131691187,Downtown Crossing,Downtown Crossing - Red Line - Alewife,red
98,70079,0,Ashmont,723.4370165745856,South Station,South Station - Red Line - Ashmont/Braintree,red
99,70079,0,Braintree,682.9894779035975,South Station,South Station - Red Line - Ashmont/Braintree,red
100,70079,0,Southbound,356.664209075985,South Station,South Station - Red Line - Ashmont/Braintree,red
101,70080,1,Alewife,361.30040021216064,South Station,South Station - Red Line - Alewife,red
102,70081,0,Ashmont,723.0372574955908,Broadway,Broadway - Red Line - Ashmont/Braintree,red
103,70081,0,Braintree,686.9999644204084,Broadway,Broadway - Red Line - Ashmont/Braintree,red
104,70081,0,Southbound,358.79719343104574,Broadway,Broadway - Red Line - Ashmont/Braintree,red
105,70082,1,Alewife,359.51222108793934,Broadway,Broadway - Red Line - Alewife,red
106,70083,0,Ashmont,722.6573880514908,Andrew,Andrew - Red Line - Ashmont/Braintree,red
107,70083,0,Braintree,681.5327601146438,Andrew,Andrew - Red Line - Ashmont/Braintree,red
108,70083,0,Southbound,356.06634932259243,Andrew,Andrew - Red Line - Ashmont/Braintree,red
109,70084,1,Alewife,364.17957281553396,Andrew,Andrew - Red Line - Alewife,red
110,70085,0,Ashmont,717.0524139608416,JFK/UMass,JFK/UMass - Red Line - Ashmont,red
111,70086,1,Alewife,726.3224692680894,JFK/UMass,JFK/UMass - Red Line - Alewife (from Ashmont),red
112,70087,0,Ashmont,716.7958681452226,Savin Hill,Savin Hill - Red Line - Ashmont,red
113,70088,1,Alewife,726.6514185242579,Savin Hill,Savin Hill - Red Line - Alewife,red
114,70089,0,Ashmont,717.6067439601796,Fields Corner,Fields Corner - Red Line - Ashmont,red
115,70090,1,Alewife,727.903862351101,Fields Corner,Fields Corner - Red Line - Alewife,red
116,70091,0,Ashmont,720.1145668331911,Shawmut,Shawmut - Red Line - Ashmont,red
117,70092,1,Alewife,728.8931556152016,Shawmut,Shawmut - Red Line - Alewife,red
118,70093,0,Ashmont,173.0,Ashmont,Ashmont - Red Line - Exit Only,red
119,70094,1,Alewife,754.6785111103752,Ashmont,Ashmont - Red Line - Alewife,red
120,70095,0,Braintree,692.9707919920155,JFK/UMass,JFK/UMass - Red Line - Braintree,red
121,70096,1,Alewife,705.9725971370143,JFK/UMass,JFK/UMass - Red Line - Alewife (from Braintree),red
122,70097,0,Braintree,675.6572922834024,North Quincy,North Quincy - Red Line - Braintree,red
123,70098,1,Alewife,679.595108338805,North Quincy,North Quincy - Red Line - Alewife,red
124,70099,0,Braintree,756.3996175908222,Wollaston,Wollaston - Red Line - Braintree,red
125,70100,1,Alewife,763.7252336448598,Wollaston,Wollaston - Red Line - Alewife,red
126,70101,0,Braintree,672.8555604188412,Quincy Center,Quincy Center - Red Line - Braintree,red
127,70102,1,Alewife,679.5188203466818,Quincy Center,Quincy Center - Red Line - Alewife,red
128,70103,0,Braintree,685.5919101290227,Quincy Adams,Quincy Adams - Red Line - Braintree,red
129,70104,1,Alewife,687.7511216679862,Quincy Adams,Quincy Adams - Red Line - Alewife,red
130,70105,0,Braintree,1121.1341463414635,Braintree,Braintree - Red Line,red
131,70105,1,Alewife,718.3613984501712,Braintree,Braintree - Red Line,red
132,70106,1,Government Center,276.0,Boston College,Boston College - Green Line - Park Street & North,green
133,70106,1,Lechmere,995.0,Boston College,Boston College - Green Line - Park Street & North,green
134,70106,1,North Station,393.0,Boston College,Boston College - Green Line - Park Street & North,green
135,70106,1,Park St,577.7376470588235,Boston College,Boston College - Green Line - Park Street & North,green
136,70107,0,Boston College,617.2381384103959,Boston College,Boston College - Green Line - Exit Only,green
137,70110,1,Government Center,467.6,South Street,South Street - Green Line - Park Street & North,green
138,70110,1,Lechmere,1059.5,South Street,South Street - Green Line - Park Street & North,green
139,70110,1,North Station,568.0,South Street,South Street - Green Line - Park Street & North,green
140,70110,1,Park St,584.0636148502506,South Street,South Street - Green Line - Park Street & North,green
141,70111,0,Boston College,536.0827625035188,South Street,South Street - Green Line - (B) Boston College,green
142,70112,1,Government Center,398.2,Chestnut Hill Avenue,Chestnut Hill Avenue - Green Line - Park Street & North,green
143,70112,1,North Station,330.57142857142856,Chestnut Hill Avenue,Chestnut Hill Avenue - Green Line - Park Street & North,green
144,70112,1,Park St,551.6344129554656,Chestnut Hill Avenue,Chestnut Hill Avenue - Green Line - Park Street & North,green
145,70113,0,Boston College,525.931852495768,Chestnut Hill Avenue,Chestnut Hill Avenue - Green Line - (B) Boston College,green
146,70114,1,Government Center,303.75,Chiswick Road,Chiswick Road - Green Line - Park Street & North,green
147,70114,1,Lechmere,228.0,Chiswick Road,Chiswick Road - Green Line - Park Street & North,green
148,70114,1,North Station,339.0,Chiswick Road,Chiswick Road - Green Line - Park Street & North,green
149,70114,1,Park St,556.6020357320806,Chiswick Road,Chiswick Road - Green Line - Park Street & North,green
150,70115,0,Boston College,538.9977071810146,Chiswick Road,Chiswick Road - Green Line - (B) Boston College,green
151,70116,1,Government Center,350.75,Sutherland Road,Sutherland Road - Green Line - Park Street & North,green
152,70116,1,Lechmere,722.0,Sutherland Road,Sutherland Road - Green Line - Park Street & North,green
153,70116,1,North Station,275.0,Sutherland Road,Sutherland Road - Green Line - Park Street & North,green
154,70116,1,Park St,555.3881497671766,Sutherland Road,Sutherland Road - Green Line - Park Street & North,green
155,70117,0,Boston College,553.2663964809964,Sutherland Road,Sutherland Road - Green Line - (B) Boston College,green
156,70120,1,Government Center,369.2,Washington Street,Washington Street - Green Line - Park Street & North,green
157,70120,1,Lechmere,723.0,Washington Street,Washington Street - Green Line - Park Street & North,green
158,70120,1,North Station,485.0,Washington Street,Washington Street - Green Line - Park Street & North,green
159,70120,1,Park St,537.5122231412554,Washington Street,Washington Street - Green Line - Park Street & North,green
160,70121,0,Boston College,526.7199094712297,Washington Street,Washington Street - Green Line - (B) Boston College,green
161,70124,1,Government Center,356.5,Warren Street,Warren Street - Green Line - Park Street & North,green
162,70124,1,North Station,393.0,Warren Street,Warren Street - Green Line - Park Street & North,green
163,70124,1,Park St,528.8024059435877,Warren Street,Warren Street - Green Line - Park Street & North,green
164,70125,0,Boston College,530.3374382584985,Warren Street,Warren Street - Green Line - (B) Boston College,green
165,70126,1,Government Center,413.0,Allston Street,Allston Street - Green Line - Park Street & North,green
166,70126,1,North Station,393.0,Allston Street,Allston Street - Green Line - Park Street & North,green
167,70126,1,Park St,531.3761428138134,Allston Street,Allston Street - Green Line - Park Street & North,green
168,70127,0,Boston College,531.2511413481336,Allston Street,Allston Street - Green Line - (B) Boston College,green
169,70128,1,Government Center,443.0,Griggs Street,Griggs Street - Green Line - Park Street & North,green
170,70128,1,Lechmere,371.0,Griggs Street,Griggs Street - Green Line - Park Street & North,green
171,70128,1,North Station,187.5,Griggs Street,Griggs Street - Green Line - Park Street & North,green
172,70128,1,Park St,532.2980522027103,Griggs Street,Griggs Street - Green Line - Park Street & North,green
173,70129,0,Boston College,535.8862793851717,Griggs Street,Griggs Street - Green Line - (B) Boston College,green
174,70130,1,Government Center,384.0,Harvard Avenue,Harvard Avenue - Green Line - Park Street & North,green
175,70130,1,North Station,745.0,Harvard Avenue,Harvard Avenue - Green Line - Park Street & North,green
176,70130,1,Park St,525.101261199321,Harvard Avenue,Harvard Avenue - Green Line - Park Street & North,green
177,70131,0,Boston College,528.6629959370351,Harvard Avenue,Harvard Avenue - Green Line - (B) Boston College,green
178,70134,1,Government Center,124.5,Packard's Corner,Packard's Corner - Green Line - Park Street & North,green
179,70134,1,Park St,525.9830106506835,Packard's Corner,Packard's Corner - Green Line - Park Street & North,green
180,70135,0,Boston College,536.7995821758993,Packard's Corner,Packard's Corner - Green Line - (B) Boston College,green
181,70136,1,Government Center,66.5,,,green
182,70136,1,North Station,322.0,,,green
183,70136,1,Park St,527.3567744115328,,,unknown
184,70137,0,Boston College,541.8874316156621,,,green
185,70138,1,Government Center,124.5,,,green
186,70138,1,North Station,1.0,,,green
187,70138,1,Park St,528.7542216418246,,,unknown
188,70139,0,Boston College,543.6232065780907,,,green
189,70140,1,Government Center,575.6666666666666,,,green
190,70140,1,North Station,279.0,,,green
191,70140,1,Park St,535.4152196235026,,,unknown
192,70141,0,Boston College,549.5205616361553,,,green
193,70142,1,Government Center,583.5,,,green
194,70142,1,North Station,0.0,,,green
195,70142,1,Park St,540.4341992046697,,,unknown
196,70143,0,Boston College,544.4051404922675,,,green
197,70144,1,Government Center,326.0,Boston University Central,Boston University Central - Green Line - Park Street & North,green
198,70144,1,North Station,231.5,Boston University Central,Boston University Central - Green Line - Park Street & North,green
199,70144,1,Park St,526.1109264739358,Boston University Central,Boston University Central - Green Line - Park Street & North,green
200,70145,0,Boston College,530.8759880963452,Boston University Central,Boston University Central - Green Line - (B) Boston College,green
201,70146,1,Government Center,473.5,Boston University East,Boston University East - Green Line - Park Street & North,green
202,70146,1,North Station,83.0,Boston University East,Boston University East - Green Line - Park Street & North,green
203,70146,1,Park St,528.3497437981084,Boston University East,Boston University East - Green Line - Park Street & North,green
204,70147,0,Boston College,532.1076484626614,Boston University East,Boston University East - Green Line - (B) Boston College,green
205,70148,1,Government Center,550.3636363636364,Blandford Street,Blandford Street - Green Line - Park Street & North,green
206,70148,1,Lechmere,245.5,Blandford Street,Blandford Street - Green Line - Park Street & North,green
207,70148,1,North Station,517.125,Blandford Street,Blandford Street - Green Line - Park Street & North,green
208,70148,1,Park St,522.9587439784328,Blandford Street,Blandford Street - Green Line - Park Street & North,green
209,70149,0,Boston College,528.2187344182041,Blandford Street,Blandford Street - Green Line - (B) Boston College,green
210,70150,1,Government Center,173.74153972828324,Kenmore,Kenmore - Green Line - Park Street & North,green
211,70150,1,Lechmere,187.0,Kenmore,Kenmore - Green Line - Park Street & North,green
212,70150,1,North Station,178.16171653439443,Kenmore,Kenmore - Green Line - Park Street & North,green
213,70150,1,Park St,170.58858576996062,Kenmore,Kenmore - Green Line - Park Street & North,green
214,70151,0,Boston College,501.6165167620605,Kenmore,"Kenmore - Green Line - (C) Cleveland Circle, (D) Riverside",green
215,70151,0,Cleveland Circle,524.2151734010021,Kenmore,"Kenmore - Green Line - (C) Cleveland Circle, (D) Riverside",green
216,70151,0,Riverside,501.8428793416647,Kenmore,"Kenmore - Green Line - (C) Cleveland Circle, (D) Riverside",green
217,70152,1,Government Center,169.5518661039391,Hynes Convention Center,Hynes Convention Center - Green Line - Park Street & North,green
218,70152,1,Lechmere,201.6153846153846,Hynes Convention Center,Hynes Convention Center - Green Line - Park Street & North,green
219,70152,1,North Station,174.52237911852802,Hynes Convention Center,Hynes Convention Center - Green Line - Park Street & North,green
220,70152,1,Park St,176.47146758369576,Hynes Convention Center,Hynes Convention Center - Green Line - Park Street & North,green
221,70153,0,Boston College,499.91295738080044,Hynes Convention Center,Hynes Convention Center - Green Line - Kenmore & West,green
222,70153,0,Cleveland Circle,525.753826328759,Hynes Convention Center,Hynes Convention Center - Green Line - Kenmore & West,green
223,70153,0,Riverside,512.0106183635228,Hynes Convention Center,Hynes Convention Center - Green Line - Kenmore & West,green
224,70154,1,Government Center,127.53655785978322,Copley,Copley - Green Line - Park Street & North,green
225,70154,1,Lechmere,136.4932821098536,Copley,Copley - Green Line - Park Street & North,green
226,70154,1,North Station,132.33696729435084,Copley,Copley - Green Line - Park Street & North,green
227,70154,1,Park St,134.8720384895286,Copley,Copley - Green Line - Park Street & North,green
228,70155,0,Boston College,506.68796084688023,Copley,"Copley - Green Line - Kenmore & West, (E) Heath Street",green
229,70155,0,Cleveland Circle,526.4507336130164,Copley,"Copley - Green Line - Kenmore & West, (E) Heath Street",green
230,70155,0,Heath St,526.5664403076198,Copley,"Copley - Green Line - Kenmore & West, (E) Heath Street",green
231,70155,0,Riverside,515.5090120309495,Copley,"Copley - Green Line - Kenmore & West, (E) Heath Street",green
232,70156,1,Government Center,125.16306934413225,Arlington,Arlington - Green Line - Park Street & North,green
233,70156,1,Lechmere,137.14986432036838,Arlington,Arlington - Green Line - Park Street & North,green
234,70156,1,North Station,133.3085655092043,Arlington,Arlington - Green Line - Park Street & North,green
235,70156,1,Park St,134.45730989403597,Arlington,Arlington - Green Line - Park Street & North,green
236,70157,0,Boston College,502.93526518391786,Arlington,Arlington - Green Line - Copley & West,green
237,70157,0,Cleveland Circle,525.0151655629139,Arlington,Arlington - Green Line - Copley & West,green
238,70157,0,Heath St,515.1438863988607,Arlington,Arlington - Green Line - Copley & West,green
239,70157,0,Riverside,514.387532330893,Arlington,Arlington - Green Line - Copley & West,green
240,70158,1,Government Center,124.38358830546429,Boylston,Boylston - Green Line - Park Street & North,green
241,70158,1,Lechmere,135.4506363599398,Boylston,Boylston - Green Line - Park Street & North,green
242,70158,1,North Station,133.62233070256553,Boylston,Boylston - Green Line - Park Street & North,green
243,70158,1,Park St,135.9759708737864,Boylston,Boylston - Green Line - Park Street & North,green
244,70159,0,Boston College,505.56977894374677,Boylston,Boylston - Green Line - Copley & West,green
245,70159,0,Cleveland Circle,526.3630635211922,Boylston,Boylston - Green Line - Copley & West,green
246,70159,0,Heath St,515.6914412528264,Boylston,Boylston - Green Line - Copley & West,green
247,70159,0,Riverside,515.4180257699146,Boylston,Boylston - Green Line - Copley & West,green
248,70160,1,Government Center,733.0907604548922,Riverside,Riverside - Green Line - Park Street & North,green
249,70161,0,Riverside,827.1094570928196,Riverside,Riverside - Green Line - Park Street & North,green
250,70162,1,Government Center,520.0479644960315,Woodland,Woodland - Green Line - Park Street & North,green
251,70162,1,Lechmere,510.7142857142857,Woodland,Woodland - Green Line - Park Street & North,green
252,70162,1,North Station,380.0,Woodland,Woodland - Green Line - Park Street & North,green
253,70163,0,Riverside,536.6605120742189,Woodland,Woodland - Green Line - (D) Riverside,green
254,70164,1,Government Center,522.8021705160862,Waban,Waban - Green Line - Park Street & North,green
255,70164,1,Lechmere,337.3333333333333,Waban,Waban - Green Line - Park Street & North,green
256,70165,0,Riverside,532.494850997904,Waban,Waban - Green Line - (D) Riverside,green
257,70166,1,Government Center,519.6532703921068,Eliot,Eliot - Green Line - Park Street & North,green
258,70166,1,Lechmere,335.0,Eliot,Eliot - Green Line - Park Street & North,green
259,70166,1,North Station,639.0,Eliot,Eliot - Green Line - Park Street & North,green
260,70167,0,Riverside,528.6677718535776,Eliot,Eliot - Green Line - (D) Riverside,green
261,70168,1,Government Center,517.3700723712218,Newton Highlands,Newton Highlands - Green Line - Park Street & North,green
262,70168,1,Lechmere,478.0,Newton Highlands,Newton Highlands - Green Line - Park Street & North,green
263,70168,1,North Station,258.0,Newton Highlands,Newton Highlands - Green Line - Park Street & North,green
264,70169,0,Riverside,528.1336333355392,Newton Highlands,Newton Highlands - Green Line - (D) Riverside,green
265,70170,1,Government Center,513.9565651416677,Newton Centre,Newton Centre - Green Line - Park Street & North,green
266,70170,1,Lechmere,309.6666666666667,Newton Centre,Newton Centre - Green Line - Park Street & North,green
267,70171,0,Riverside,526.2512765208205,Newton Centre,Newton Centre - Green Line - (D) Riverside,green
268,70172,1,Government Center,528.3559002971128,Chestnut Hill,Chestnut Hill - Green Line - Park Street & North,green
269,70172,1,Lechmere,595.0,Chestnut Hill,Chestnut Hill - Green Line - Park Street & North,green
270,70172,1,North Station,509.0,Chestnut Hill,Chestnut Hill - Green Line - Park Street & North,green
271,70172,1,Park St,523.0,Chestnut Hill,Chestnut Hill - Green Line - Park Street & North,green
272,70173,0,Riverside,523.4589530955202,Chestnut Hill,Chestnut Hill - Green Line - (D) Riverside,green
273,70174,1,Government Center,519.3722190932132,Reservoir,Reservoir - Green Line - Park Street & North,green
274,70174,1,Lechmere,610.5,Reservoir,Reservoir - Green Line - Park Street & North,green
275,70174,1,North Station,331.6666666666667,Reservoir,Reservoir - Green Line - Park Street & North,green
276,70174,1,Park St,547.0,Reservoir,Reservoir - Green Line - Park Street & North,green
277,70175,0,Riverside,528.95338321704,Reservoir,Reservoir - Green Line - (D) Riverside,green
278,70176,1,Government Center,521.9691306173877,Beaconsfield,Beaconsfield - Green Line - Park Street & North,green
279,70176,1,Lechmere,953.0,Beaconsfield,Beaconsfield - Green Line - Park Street & North,green
280,70176,1,North Station,389.3333333333333,Beaconsfield,Beaconsfield - Green Line - Park Street & North,green
281,70176,1,Park St,1090.0,Beaconsfield,Beaconsfield - Green Line - Park Street & North,green
282,70177,0,Riverside,533.7481595737222,Beaconsfield,Beaconsfield - Green Line - (D) Riverside,green
283,70178,1,Government Center,520.2061660589837,Brookline Hills,Brookline Hills - Green Line - Park Street & North,green
284,70178,1,Lechmere,715.3333333333334,Brookline Hills,Brookline Hills - Green Line - Park Street & North,green
285,70178,1,North Station,149.0,Brookline Hills,Brookline Hills - Green Line - Park Street & North,green
286,70178,1,Park St,687.0,Brookline Hills,Brookline Hills - Green Line - Park Street & North,green
287,70179,0,Riverside,536.2155164297147,Brookline Hills,Brookline Hills - Green Line - (D) Riverside,green
288,70180,1,Government Center,500.53032797828314,Brookline Village,Brookline Village - Green Line - Park Street & North,green
289,70180,1,Lechmere,527.25,Brookline Village,Brookline Village - Green Line - Park Street & North,green
290,70181,0,Riverside,519.7078056694759,Brookline Village,Brookline Village - Green Line - (D) Riverside,green
291,70182,1,Government Center,483.8543879024722,Longwood,Longwood - Green Line - Park Street & North,green
292,70182,1,Lechmere,621.5,Longwood,Longwood - Green Line - Park Street & North,green
293,70182,1,North Station,17.0,Longwood,Longwood - Green Line - Park Street & North,green
294,70182,1,Park St,291.5,Longwood,Longwood - Green Line - Park Street & North,green
295,70183,0,Riverside,516.3120870753174,Longwood,Longwood - Green Line - (D) Riverside,green
296,70186,1,Government Center,498.10965601536583,Fenway,Fenway - Green Line - Park Street & North,green
297,70186,1,Lechmere,466.3333333333333,Fenway,Fenway - Green Line - Park Street & North,green
298,70186,1,North Station,533.8333333333334,Fenway,Fenway - Green Line - Park Street & North,green
299,70186,1,Park St,59.0,Fenway,Fenway - Green Line - Park Street & North,green
300,70187,0,Riverside,519.6143655698963,Fenway,Fenway - Green Line - (D) Riverside,green
301,70196,0,Boston College,506.818587076505,Park Street,Park Street - Green Line - (B) Boston College,green
302,70197,0,Cleveland Circle,528.3197626034778,Park Street,Park Street - Green Line - (C) Cleveland Circle,green
303,70198,0,Riverside,527.491821495244,Park Street,Park Street - Green Line - (D) Riverside,green
304,70199,0,Heath St,528.5708865052783,Park Street,Park Street - Green Line - (E) Heath Street,green
305,70200,1,Government Center,159.54681257213886,Park Street,Park Street - Green Line - Government Center & North,green
306,70200,1,Lechmere,178.3356072874494,Park Street,Park Street - Green Line - Government Center & North,green
307,70200,1,North Station,172.63229571984436,Park Street,Park Street - Green Line - Government Center & North,green
308,70200,1,Park St,154.1346992595598,Park Street,Park Street - Green Line - Government Center & North,green
309,70201,1,Government Center,185.7822858658181,Government Center,Government Center - Green Line - North Station & North,green
310,70201,1,Lechmere,247.5790958768008,Government Center,Government Center - Green Line - North Station & North,green
311,70201,1,North Station,251.55099873463485,Government Center,Government Center - Green Line - North Station & North,green
312,70201,1,Park St,218.53069196428572,Government Center,Government Center - Green Line - North Station & North,green
313,70202,0,Cleveland Circle,539.728997350815,Government Center,Government Center - Green Line - Copley & West,green
314,70202,0,Heath St,519.4071534897373,Government Center,Government Center - Green Line - Copley & West,green
315,70202,0,Riverside,576.0840685143462,Government Center,Government Center - Green Line - Copley & West,green
316,70203,1,Government Center,251.2258883248731,Haymarket,Haymarket - Green Line - North Station & North,green
317,70203,1,Lechmere,300.38016626517407,Haymarket,Haymarket - Green Line - North Station & North,green
318,70203,1,North Station,309.1319179128916,Haymarket,Haymarket - Green Line - North Station & North,green
319,70203,1,Park St,299.6817518248175,Haymarket,Haymarket - Green Line - North Station & North,green
320,70204,0,Cleveland Circle,571.6788535427057,Haymarket,Haymarket - Green Line - Copley & West,green
321,70204,0,Heath St,501.8980118194188,Haymarket,Haymarket - Green Line - Copley & West,green
322,70204,0,Riverside,1188.8842592592594,Haymarket,Haymarket - Green Line - Copley & West,green
323,70205,1,Government Center,314.13106159895153,North Station,North Station - Green Line - Lechmere & North,green
324,70205,1,Lechmere,445.5972352024922,North Station,North Station - Green Line - Lechmere & North,green
325,70205,1,North Station,296.8799885156474,North Station,North Station - Green Line - Lechmere & North,green
326,70205,1,Park St,283.3333333333333,North Station,North Station - Green Line - Lechmere & North,green
327,70206,0,Cleveland Circle,567.2208349686028,North Station,North Station - Green Line - Copley & West,green
328,70206,0,Heath St,498.41516208241336,North Station,North Station - Green Line - Copley & West,green
329,70206,0,Riverside,1180.5333333333333,North Station,North Station - Green Line - Copley & West,green
330,70207,1,Government Center,414.1814345991561,Science Park/West End,Science Park/West End - Green Line - Lechmere & North,green
331,70207,1,Lechmere,558.8791863421721,Science Park/West End,Science Park/West End - Green Line - Lechmere & North,green
332,70207,1,North Station,536.235761589404,Science Park/West End,Science Park/West End - Green Line - Lechmere & North,green
333,70207,1,Park St,460.65,Science Park/West End,Science Park/West End - Green Line - Lechmere & North,green
334,70208,0,Cleveland Circle,557.1869918699186,Science Park/West End,Science Park/West End - Green Line - Copley & West,green
335,70208,0,Heath St,510.86556275104516,Science Park/West End,Science Park/West End - Green Line - Copley & West,green
336,70208,0,Riverside,1217.7810650887575,Science Park/West End,Science Park/West End - Green Line - Copley & West,green
337,70209,1,Government Center,575.025974025974,,,green
338,70209,1,Lechmere,629.7413286302175,,,green
339,70209,1,North Station,631.6439393939394,,,green
340,70209,1,Park St,825.2222222222222,,,unknown
341,70210,0,Cleveland Circle,537.0843373493976,,,green
342,70210,0,Heath St,583.2488440009735,,,unknown
343,70210,0,Riverside,1263.5294117647059,,,green
344,70211,0,Cleveland Circle,554.3429551366158,Saint Mary's Street,Saint Mary's Street - Green Line - (C) Cleveland Circle,green
345,70212,1,Government Center,393.5,Saint Mary's Street,Saint Mary's Street - Green Line - Park Street & North,green
346,70212,1,North Station,596.9857727382131,Saint Mary's Street,Saint Mary's Street - Green Line - Park Street & North,green
347,70212,1,Park St,295.6,Saint Mary's Street,Saint Mary's Street - Green Line - Park Street & North,green
348,70213,0,Cleveland Circle,574.8798068674787,Hawes Street,Hawes Street - Green Line - (C) Cleveland Circle,green
349,70214,1,Government Center,450.0,Hawes Street,Hawes Street - Green Line - Park Street & North,green
350,70214,1,Lechmere,1.0,Hawes Street,Hawes Street - Green Line - Park Street & North,green
351,70214,1,North Station,627.4550231755956,Hawes Street,Hawes Street - Green Line - Park Street & North,green
352,70214,1,Park St,463.0,Hawes Street,Hawes Street - Green Line - Park Street & North,green
353,70215,0,Cleveland Circle,579.595605921591,Kent Street,Kent Street - Green Line - (C) Cleveland Circle,green
354,70216,1,Government Center,452.3333333333333,Kent Street,Kent Street - Green Line - Park Street & North,green
355,70216,1,North Station,584.1249092756568,Kent Street,Kent Street - Green Line - Park Street & North,green
356,70216,1,Park St,502.5,Kent Street,Kent Street - Green Line - Park Street & North,green
357,70217,0,Cleveland Circle,556.0496996683596,Saint Paul Street,Saint Paul Street - Green Line - (C) Cleveland Circle,green
358,70218,1,Government Center,434.0,Saint Paul Street,Saint Paul Street - Green Line - Park Street & North,green
359,70218,1,Lechmere,775.0,Saint Paul Street,Saint Paul Street - Green Line - Park Street & North,green
360,70218,1,North Station,568.7038213562992,Saint Paul Street,Saint Paul Street - Green Line - Park Street & North,green
361,70219,0,Cleveland Circle,534.8626028921024,Coolidge Corner,Coolidge Corner - Green Line - (C) Cleveland Circle,green
362,70220,1,Government Center,437.73333333333335,Coolidge Corner,Coolidge Corner - Green Line - Park Street & North,green
363,70220,1,Lechmere,638.0,Coolidge Corner,Coolidge Corner - Green Line - Park Street & North,green
364,70220,1,North Station,568.7526912181303,Coolidge Corner,Coolidge Corner - Green Line - Park Street & North,green
365,70223,0,Cleveland Circle,544.2482313345697,Summit Avenue,Summit Avenue - Green Line - (C) Cleveland Circle,green
366,70224,1,Government Center,488.5,Summit Avenue,Summit Avenue - Green Line - Park Street & North,green
367,70224,1,North Station,596.2755291869878,Summit Avenue,Summit Avenue - Green Line - Park Street & North,green
368,70225,0,Cleveland Circle,583.7521787315501,Brandon Hall,Brandon Hall - Green Line - (C) Cleveland Circle,green
369,70226,1,Government Center,464.0833333333333,Brandon Hall,Brandon Hall - Green Line - Park Street & North,green
370,70226,1,North Station,636.6448704103672,Brandon Hall,Brandon Hall - Green Line - Park Street & North,green
371,70227,0,Cleveland Circle,556.7507196315487,Fairbanks Street,Fairbanks Street - Green Line - (C) Cleveland Circle,green
372,70228,1,Government Center,500.35714285714283,Fairbanks Street,Fairbanks Street - Green Line - Park Street & North,green
373,70228,1,Lechmere,560.0,Fairbanks Street,Fairbanks Street - Green Line - Park Street & North,green
374,70228,1,North Station,601.0330053712163,Fairbanks Street,Fairbanks Street - Green Line - Park Street & North,green
375,70229,0,Cleveland Circle,526.2441669819649,Washington Square,Washington Square - Green Line - (C) Cleveland Circle,green
376,70230,1,Government Center,410.5263157894737,Washington Square,Washington Square - Green Line - Park Street & North,green
377,70230,1,Lechmere,134.0,Washington Square,Washington Square - Green Line - Park Street & North,green
378,70230,1,North Station,553.9098797485652,Washington Square,Washington Square - Green Line - Park Street & North,green
379,70230,1,Park St,38.0,Washington Square,Washington Square - Green Line - Park Street & North,green
380,70231,0,Cleveland Circle,528.4915837715686,Tappan Street,Tappan Street - Green Line - (C) Cleveland Circle,green
381,70232,1,Government Center,533.4166666666666,Tappan Street,Tappan Street - Green Line - Park Street & North,green
382,70232,1,North Station,559.9064642282034,Tappan Street,Tappan Street - Green Line - Park Street & North,green
383,70233,0,Cleveland Circle,526.4143830559248,Dean Road,Dean Road - Green Line - (C) Cleveland Circle,green
384,70234,1,Government Center,611.2666666666667,Dean Road,Dean Road - Green Line - Park Street & North,green
385,70234,1,North Station,569.5227043153468,Dean Road,Dean Road - Green Line - Park Street & North,green
386,70235,0,Cleveland Circle,542.1709608572246,Englewood Avenue,Englewood Avenue - Green Line - (C) Cleveland Circle,green
387,70236,1,Government Center,812.8571428571429,Englewood Avenue,Englewood Avenue - Green Line - Park Street & North,green
388,70236,1,Lechmere,497.0,Englewood Avenue,Englewood Avenue - Green Line - Park Street & North,green
389,70236,1,North Station,663.2944084502717,Englewood Avenue,Englewood Avenue - Green Line - Park Street & North,green
390,70237,0,Cleveland Circle,908.9306794783803,Cleveland Circle,Cleveland Circle - Green Line - Exit Only,green
391,70238,1,Government Center,512.5111111111111,Cleveland Circle,Cleveland Circle - Green Line - Park Street & North,green
392,70238,1,Lechmere,657.75,Cleveland Circle,Cleveland Circle - Green Line - Park Street & North,green
393,70238,1,North Station,676.8533431197791,Cleveland Circle,Cleveland Circle - Green Line - Park Street & North,green
394,70239,0,Heath St,525.1945630047935,Prudential,Prudential - Green Line - (E) Heath Street,green
395,70240,1,Government Center,493.0,Prudential,Prudential - Green Line - Park Street & North,green
396,70240,1,Lechmere,520.0835126355314,Prudential,Prudential - Green Line - Park Street & North,green
397,70240,1,North Station,367.25,Prudential,Prudential - Green Line - Park Street & North,green
398,70241,0,Heath St,530.8164808489613,Symphony,Symphony - Green Line - (E) Heath Street,green
399,70242,1,Government Center,176.0,Symphony,Symphony - Green Line - Park Street & North,green
400,70242,1,Lechmere,535.2244405586666,Symphony,Symphony - Green Line - Park Street & North,green
401,70243,0,Heath St,541.7681259004765,Northeastern University,Northeastern University - Green Line - (E) Heath Street,green
402,70244,1,Lechmere,516.1955888839876,Northeastern University,Northeastern University - Green Line - Park Street & North,green
403,70244,1,North Station,490.0,Northeastern University,Northeastern University - Green Line - Park Street & North,green
404,70245,0,Heath St,536.3351008131892,Museum of Fine Arts,Museum of Fine Arts - Green Line - (E) Heath Street,green
405,70246,1,Lechmere,522.8424832110641,Museum of Fine Arts,Museum of Fine Arts - Green Line - Park Street & North,green
406,70246,1,Park St,329.0,Museum of Fine Arts,Museum of Fine Arts - Green Line - Park Street & North,green
407,70247,0,Heath St,545.693790149893,Longwood Medical Area,Longwood Medical Area - Green Line - (E) Heath Street,green
408,70248,1,Government Center,129.0,Longwood Medical Area,Longwood Medical Area - Green Line - Park Street & North,green
409,70248,1,Lechmere,538.3619539187649,Longwood Medical Area,Longwood Medical Area - Green Line - Park Street & North,green
410,70248,1,Park St,302.0,Longwood Medical Area,Longwood Medical Area - Green Line - Park Street & North,green
411,70249,0,Heath St,562.2735138674524,Brigham Circle,Brigham Circle - Green Line - (E) Heath Street,green
412,70250,1,Government Center,544.0,Brigham Circle,Brigham Circle - Green Line - Park Street & North,green
413,70250,1,Lechmere,625.4309927360774,Brigham Circle,Brigham Circle - Green Line - Park Street & North,green
414,70250,1,North Station,339.0,Brigham Circle,Brigham Circle - Green Line - Park Street & North,green
415,70250,1,Park St,120.0,Brigham Circle,Brigham Circle - Green Line - Park Street & North,green
416,70251,0,Heath St,658.7561095419379,Fenwood Road,Fenwood Road - Green Line - (E) Heath Street,green
417,70252,1,Lechmere,691.0453074433657,Fenwood Road,Fenwood Road - Green Line - Park Street & North,green
418,70253,0,Heath St,591.1104237858871,Mission Park,Mission Park - Green Line - (E) Heath Street,green
419,70254,1,Lechmere,596.0704797979798,Mission Park,Mission Park - Green Line - Park Street & North,green
420,70254,1,North Station,436.0,Mission Park,Mission Park - Green Line - Park Street & North,green
421,70254,1,Park St,230.0,Mission Park,Mission Park - Green Line - Park Street & North,green
422,70255,0,Heath St,625.2501945003354,Riverway,Riverway - Green Line - (E) Heath Street,green
423,70256,1,Government Center,928.0,Riverway,Riverway - Green Line - Park Street & North,green
424,70256,1,Lechmere,604.2488475702403,Riverway,Riverway - Green Line - Park Street & North,green
425,70256,1,North Station,546.0,Riverway,Riverway - Green Line - Park Street & North,green
426,70256,1,Park St,68.0,Riverway,Riverway - Green Line - Park Street & North,green
427,70257,0,Heath St,684.0299001208729,Back of the Hill,Back of the Hill - Green Line - (E) Heath Street,green
428,70258,1,Lechmere,707.9809660856199,Back of the Hill,Back of the Hill - Green Line - Park Street & North,green
429,70260,0,Heath St,941.7860326894502,Heath Street,Heath Street - Green Line,green
430,70260,1,Lechmere,620.6362045289319,Heath Street,Heath Street - Green Line,green
431,70260,1,North Station,549.0,Heath Street,Heath Street - Green Line,green
432,70261,0,Mattapan,618.5331618735875,Ashmont,Ashmont - Mattapan Trolley,red
433,70263,0,Mattapan,641.0875411064396,Cedar Grove,Cedar Grove - Mattapan Trolley - Mattapan,red
434,70264,1,Ashmont,630.3724676392028,Cedar Grove,Cedar Grove - Mattapan Trolley - Ashmont,red
435,70265,0,Mattapan,651.0272312703584,Butler,Butler - Mattapan Trolley - Mattapan,red
436,70266,1,Ashmont,619.1875956820412,Butler,Butler - Mattapan Trolley - Ashmont,red
437,70267,0,Mattapan,714.2930556542753,Milton,Milton - Mattapan Trolley - Mattapan,red
438,70268,1,Ashmont,556.3249413406049,Milton,Milton - Mattapan Trolley - Ashmont,red
439,70269,0,Mattapan,542.4441513032422,Central Avenue,Central Avenue - Mattapan Trolley - Mattapan,red
440,70270,1,Ashmont,539.8417796378856,Central Avenue,Central Avenue - Mattapan Trolley - Ashmont,red
441,70271,0,Mattapan,663.4358665832411,Valley Road,Valley Road - Mattapan Trolley - Mattapan,red
442,70272,1,Ashmont,637.106279352931,Valley Road,Valley Road - Mattapan Trolley - Ashmont,red
443,70273,0,Mattapan,626.4972112361829,Capen Street,Capen Street - Mattapan Trolley - Mattapan,red
444,70274,1,Ashmont,649.8560915780866,Capen Street,Capen Street - Mattapan Trolley - Ashmont,red
445,70275,0,Mattapan,202.33333333333334,Mattapan,Mattapan - Mattapan Trolley - Exit Only,red
446,70278,0,Forest Hills,522.4580968648411,Assembly,Assembly - Orange Line - Forest Hills,orange
447,70279,1,Oak Grove,518.1370400022086,Assembly,Assembly - Orange Line - Oak Grove,orange
448,70838,0,Bowdoin,84.22222222222223,Bowdoin,Bowdoin - Blue Line - Exit Only,blue
