Unnamed: 0,stop_id,direction_id,destination,headway_time_sec,stop_name
0,70001,0,Forest Hills,1056.1379310344828,
1,70001,1,Oak Grove,512.2139113752281,
2,70002,0,Forest Hills,519.7183603951403,Green Street
3,70003,1,Oak Grove,514.1178365780094,Green Street
4,70004,0,Forest Hills,519.0194278443046,Stony Brook
5,70005,1,Oak Grove,516.5781483663388,Stony Brook
6,70006,0,Forest Hills,515.5577563021379,Jackson Square
7,70007,1,Oak Grove,518.8814934337322,Jackson Square
8,70008,0,Forest Hills,513.6338483813316,Roxbury Crossing
9,70009,1,Oak Grove,518.7866597979707,Roxbury Crossing
10,70010,0,Forest Hills,512.7407181019651,Ruggles
11,70011,1,Oak Grove,517.8109693075091,Ruggles
12,70012,0,Forest Hills,518.6810078123261,Massachusetts Avenue
13,70013,1,Oak Grove,523.4476666153271,Massachusetts Avenue
14,70014,0,Forest Hills,518.8030329983101,Back Bay
15,70015,1,Oak Grove,523.974802940395,Back Bay
16,70016,0,Forest Hills,525.9376592566558,Tufts Medical Center
17,70017,1,Oak Grove,529.8216380621334,Tufts Medical Center
18,70018,0,Forest Hills,526.2449194574903,Chinatown
19,70019,1,Oak Grove,530.1968404560885,Chinatown
20,70020,0,Forest Hills,526.2877622147695,Downtown Crossing
21,70021,1,Oak Grove,526.154596434572,Downtown Crossing
22,70022,0,Forest Hills,529.6562452407371,State
23,70023,1,Oak Grove,526.0230493351994,State
24,70024,0,Forest Hills,529.6379750147165,Haymarket
25,70025,1,Oak Grove,525.8578357475258,Haymarket
26,70026,0,Forest Hills,529.6304366774166,North Station
27,70027,1,Oak Grove,525.8164971009736,North Station
28,70028,0,Forest Hills,528.1073184589497,Community College
29,70029,1,Oak Grove,525.4743786101873,Community College
30,70030,0,Forest Hills,522.3999559943893,Sullivan Square
31,70031,1,Oak Grove,517.8497652582159,Sullivan Square
32,70032,0,Forest Hills,527.5515491988879,Wellington
33,70033,1,Oak Grove,522.5792448125883,Wellington
34,70034,0,Forest Hills,529.9347900210263,Malden Center
35,70035,1,Oak Grove,524.3066888242626,Malden Center
36,70036,0,Forest Hills,543.4712946351062,
37,70036,1,Oak Grove,1204.1808510638298,
38,70038,1,Wonderland,435.4847989539065,
39,70039,0,Bowdoin,428.5169953116381,Government Center
40,70040,1,Wonderland,433.1389421002675,Government Center
41,70041,0,Bowdoin,426.1087833084539,State
42,70042,1,Wonderland,433.397340599831,State
43,70043,0,Bowdoin,423.8358532059653,Aquarium
44,70044,1,Wonderland,433.2675114214292,Aquarium
45,70045,0,Bowdoin,422.8095082249591,Maverick
46,70046,1,Wonderland,432.8188279538358,Maverick
47,70047,0,Bowdoin,422.9593149224473,Airport
48,70048,1,Wonderland,432.0974119028298,Airport
49,70049,0,Bowdoin,423.2613946106338,Wood Island
50,70050,1,Wonderland,431.69860386356567,Wood Island
51,70051,0,Bowdoin,429.8417760422316,Orient Heights
52,70052,1,Wonderland,430.7912106910084,Orient Heights
53,70053,0,Bowdoin,432.5107075279846,Suffolk Downs
54,70054,1,Wonderland,430.6868850481623,Suffolk Downs
55,70055,0,Bowdoin,432.40242351444925,Beachmont
56,70056,1,Wonderland,431.0503540248849,Beachmont
57,70057,0,Bowdoin,432.0575809259851,Revere Beach
58,70058,1,Wonderland,432.371111684292,Revere Beach
59,70059,0,Bowdoin,417.2217267936765,
60,70060,0,Bowdoin,602.7264573991031,
61,70060,1,Wonderland,676.4666666666667,
62,70061,0,Ashmont,723.8380052151239,Alewife
63,70061,0,Braintree,706.757181704086,Alewife
64,70061,0,Southbound,353.15490186745365,Alewife
65,70061,1,Alewife,736.0819672131148,Alewife
66,70063,0,Ashmont,727.4822834645669,Davis
67,70063,0,Braintree,673.4569748245976,Davis
68,70063,0,Southbound,354.793761707948,Davis
69,70064,1,Alewife,360.9223586756979,Davis
70,70065,0,Ashmont,727.0179745725559,Porter
71,70065,0,Braintree,672.5707399373343,Porter
72,70065,0,Southbound,354.5487327549001,Porter
73,70066,1,Alewife,356.54297816293234,Porter
74,70067,0,Ashmont,756.5344761417424,Harvard
75,70067,0,Braintree,720.511224263892,Harvard
76,70067,0,Southbound,375.7179815483916,Harvard
77,70068,1,Alewife,357.4569359812876,Harvard
78,70069,0,Ashmont,725.7968835131306,Central
79,70069,0,Braintree,679.659803621785,Central
80,70069,0,Southbound,359.5357621489337,Central
81,70070,1,Alewife,358.6716181627188,Central
82,70071,0,Ashmont,727.7358573148047,Kendall/MIT
83,70071,0,Braintree,679.3734149092525,Kendall/MIT
84,70071,0,Southbound,357.6314397967624,Kendall/MIT
85,70072,1,Alewife,358.316600353008,Kendall/MIT
86,70073,0,Ashmont,727.254690226876,Charles/MGH
87,70073,0,Braintree,681.3193612774451,Charles/MGH
88,70073,0,Southbound,357.37666573203666,Charles/MGH
89,70074,1,Alewife,368.5544038889346,Charles/MGH
90,70075,0,Ashmont,723.044629183986,Park Street
91,70075,0,Braintree,682.8327663264625,Park Street
92,70075,0,Southbound,356.5941204918153,Park Street
93,70076,1,Alewife,358.57368789780435,Park Street
94,70077,0,Ashmont,724.013879709187,Downtown Crossing
95,70077,0,Braintree,682.5073151179104,Downtown Crossing
96,70077,0,Southbound,356.4735970695971,Downtown Crossing
97,70078,1,Alewife,360.26156131691187,Downtown Crossing
98,70079,0,Ashmont,723.4370165745856,South Station
99,70079,0,Braintree,682.9894779035975,South Station
100,70079,0,Southbound,356.664209075985,South Station
101,70080,1,Alewife,361.30040021216064,South Station
102,70081,0,Ashmont,723.0372574955908,Broadway
103,70081,0,Braintree,686.9999644204084,Broadway
104,70081,0,Southbound,358.79719343104574,Broadway
105,70082,1,Alewife,359.51222108793934,Broadway
106,70083,0,Ashmont,722.6573880514908,Andrew
107,70083,0,Braintree,681.5327601146438,Andrew
108,70083,0,Southbound,356.06634932259243,Andrew
109,70084,1,Alewife,364.179572815534,Andrew
110,70085,0,Ashmont,717.0524139608416,JFK/UMass
111,70086,1,Alewife,726.3224692680894,JFK/UMass
112,70087,0,Ashmont,716.7958681452226,Savin Hill
113,70088,1,Alewife,726.6514185242579,Savin Hill
114,70089,0,Ashmont,717.6067439601796,Fields Corner
115,70090,1,Alewife,727.903862351101,Fields Corner
116,70091,0,Ashmont,720.1145668331911,Shawmut
117,70092,1,Alewife,728.8931556152016,Shawmut
118,70093,0,Ashmont,173.0,
119,70094,1,Alewife,754.6785111103752,
120,70095,0,Braintree,692.9707919920155,JFK/UMass
121,70096,1,Alewife,705.9725971370143,JFK/UMass
122,70097,0,Braintree,675.6572922834024,North Quincy
123,70098,1,Alewife,679.595108338805,North Quincy
124,70099,0,Braintree,756.3996175908222,Wollaston
125,70100,1,Alewife,763.7252336448598,Wollaston
126,70101,0,Braintree,672.8555604188412,Quincy Center
127,70102,1,Alewife,679.5188203466818,Quincy Center
128,70103,0,Braintree,685.5919101290227,Quincy Adams
129,70104,1,Alewife,687.7511216679862,Quincy Adams
130,70105,0,Braintree,1121.1341463414635,
131,70105,1,Alewife,718.3613984501712,
132,70106,1,Government Center,276.0,
133,70106,1,Lechmere,995.0,
134,70106,1,North Station,393.0,
135,70106,1,Park St,577.7376470588235,
136,70107,0,Boston College,617.2381384103959,Boston College
137,70110,1,Government Center,467.6,South Street
138,70110,1,Lechmere,1059.5,South Street
139,70110,1,North Station,568.0,South Street
140,70110,1,Park St,584.0636148502506,South Street
141,70111,0,Boston College,536.0827625035188,South Street
142,70112,1,Government Center,398.2,Chestnut Hill Avenue
143,70112,1,North Station,330.57142857142856,Chestnut Hill Avenue
144,70112,1,Park St,551.6344129554656,Chestnut Hill Avenue
145,70113,0,Boston College,525.931852495768,Chestnut Hill Avenue
146,70114,1,Government Center,303.75,Chiswick Road
147,70114,1,Lechmere,228.0,Chiswick Road
148,70114,1,North Station,339.0,Chiswick Road
149,70114,1,Park St,556.6020357320806,Chiswick Road
150,70115,0,Boston College,538.9977071810146,Chiswick Road
151,70116,1,Government Center,350.75,Sutherland Road
152,70116,1,Lechmere,722.0,Sutherland Road
153,70116,1,North Station,275.0,Sutherland Road
154,70116,1,Park St,555.3881497671766,Sutherland Road
155,70117,0,Boston College,553.2663964809964,Sutherland Road
156,70120,1,Government Center,369.2,Washington Street
157,70120,1,Lechmere,723.0,Washington Street
158,70120,1,North Station,485.0,Washington Street
159,70120,1,Park St,537.5122231412554,Washington Street
160,70121,0,Boston College,526.7199094712297,Washington Street
161,70124,1,Government Center,356.5,Warren Street
162,70124,1,North Station,393.0,Warren Street
163,70124,1,Park St,528.8024059435877,Warren Street
164,70125,0,Boston College,530.3374382584985,Warren Street
165,70126,1,Government Center,413.0,Allston Street
166,70126,1,North Station,393.0,Allston Street
167,70126,1,Park St,531.3761428138134,Allston Street
168,70127,0,Boston College,531.2511413481336,Allston Street
169,70128,1,Government Center,443.0,Griggs Street
170,70128,1,Lechmere,371.0,Griggs Street
171,70128,1,North Station,187.5,Griggs Street
172,70128,1,Park St,532.2980522027103,Griggs Street
173,70129,0,Boston College,535.8862793851717,Griggs Street
174,70130,1,Government Center,384.0,Harvard Avenue
175,70130,1,North Station,745.0,Harvard Avenue
176,70130,1,Park St,525.101261199321,Harvard Avenue
177,70131,0,Boston College,528.6629959370351,Harvard Avenue
178,70134,1,Government Center,124.5,Packard's Corner
179,70134,1,Park St,525.9830106506835,Packard's Corner
180,70135,0,Boston College,536.7995821758993,Packard's Corner
181,70136,1,Government Center,66.5,
182,70136,1,North Station,322.0,
183,70136,1,Park St,527.3567744115328,
184,70137,0,Boston College,541.8874316156621,
185,70138,1,Government Center,124.5,
186,70138,1,North Station,1.0,
187,70138,1,Park St,528.7542216418246,
188,70139,0,Boston College,543.6232065780907,
189,70140,1,Government Center,575.6666666666666,
190,70140,1,North Station,279.0,
191,70140,1,Park St,535.4152196235026,
192,70141,0,Boston College,549.5205616361553,
193,70142,1,Government Center,583.5,
194,70142,1,North Station,0.0,
195,70142,1,Park St,540.4341992046697,
196,70143,0,Boston College,544.4051404922675,
197,70144,1,Government Center,326.0,Boston University Central
198,70144,1,North Station,231.5,Boston University Central
199,70144,1,Park St,526.1109264739358,Boston University Central
200,70145,0,Boston College,530.8759880963452,Boston University Central
201,70146,1,Government Center,473.5,Boston University East
202,70146,1,North Station,83.0,Boston University East
203,70146,1,Park St,528.3497437981084,Boston University East
204,70147,0,Boston College,532.1076484626614,Boston University East
205,70148,1,Government Center,550.3636363636364,Blandford Street
206,70148,1,Lechmere,245.5,Blandford Street
207,70148,1,North Station,517.125,Blandford Street
208,70148,1,Park St,522.9587439784328,Blandford Street
209,70149,0,Boston College,528.2187344182041,Blandford Street
210,70150,1,Government Center,173.74153972828324,Kenmore
211,70150,1,Lechmere,187.0,Kenmore
212,70150,1,North Station,178.16171653439443,Kenmore
213,70150,1,Park St,170.58858576996062,Kenmore
214,70151,0,Boston College,501.6165167620605,Kenmore
215,70151,0,Cleveland Circle,524.2151734010021,Kenmore
216,70151,0,Riverside,501.8428793416647,Kenmore
217,70152,1,Government Center,169.5518661039391,Hynes Convention Center
218,70152,1,Lechmere,201.6153846153846,Hynes Convention Center
219,70152,1,North Station,174.52237911852802,Hynes Convention Center
220,70152,1,Park St,176.47146758369576,Hynes Convention Center
221,70153,0,Boston College,499.9129573808005,Hynes Convention Center
222,70153,0,Cleveland Circle,525.753826328759,Hynes Convention Center
223,70153,0,Riverside,512.0106183635228,Hynes Convention Center
224,70154,1,Government Center,127.53655785978322,Copley
225,70154,1,Lechmere,136.4932821098536,Copley
226,70154,1,North Station,132.33696729435084,Copley
227,70154,1,Park St,134.8720384895286,Copley
228,70155,0,Boston College,506.6879608468802,Copley
229,70155,0,Cleveland Circle,526.4507336130164,Copley
230,70155,0,Heath St,526.5664403076198,Copley
231,70155,0,Riverside,515.5090120309495,Copley
232,70156,1,Government Center,125.16306934413224,Arlington
233,70156,1,Lechmere,137.14986432036838,Arlington
234,70156,1,North Station,133.3085655092043,Arlington
235,70156,1,Park St,134.45730989403597,Arlington
236,70157,0,Boston College,502.93526518391786,Arlington
237,70157,0,Cleveland Circle,525.0151655629139,Arlington
238,70157,0,Heath St,515.1438863988607,Arlington
239,70157,0,Riverside,514.387532330893,Arlington
240,70158,1,Government Center,124.38358830546429,Boylston
241,70158,1,Lechmere,135.4506363599398,Boylston
242,70158,1,North Station,133.6223307025655,Boylston
243,70158,1,Park St,135.9759708737864,Boylston
244,70159,0,Boston College,505.5697789437468,Boylston
245,70159,0,Cleveland Circle,526.3630635211922,Boylston
246,70159,0,Heath St,515.6914412528264,Boylston
247,70159,0,Riverside,515.4180257699146,Boylston
248,70160,1,Government Center,733.0907604548922,
249,70161,0,Riverside,827.1094570928196,
250,70162,1,Government Center,520.0479644960315,Woodland
251,70162,1,Lechmere,510.7142857142857,Woodland
252,70162,1,North Station,380.0,Woodland
253,70163,0,Riverside,536.6605120742189,Woodland
254,70164,1,Government Center,522.8021705160862,Waban
255,70164,1,Lechmere,337.3333333333333,Waban
256,70165,0,Riverside,532.494850997904,Waban
257,70166,1,Government Center,519.6532703921068,Eliot
258,70166,1,Lechmere,335.0,Eliot
259,70166,1,North Station,639.0,Eliot
260,70167,0,Riverside,528.6677718535776,Eliot
261,70168,1,Government Center,517.3700723712218,Newton Highlands
262,70168,1,Lechmere,478.0,Newton Highlands
263,70168,1,North Station,258.0,Newton Highlands
264,70169,0,Riverside,528.1336333355392,Newton Highlands
265,70170,1,Government Center,513.9565651416677,Newton Centre
266,70170,1,Lechmere,309.6666666666667,Newton Centre
267,70171,0,Riverside,526.2512765208205,Newton Centre
268,70172,1,Government Center,528.3559002971128,Chestnut Hill
269,70172,1,Lechmere,595.0,Chestnut Hill
270,70172,1,North Station,509.0,Chestnut Hill
271,70172,1,Park St,523.0,Chestnut Hill
272,70173,0,Riverside,523.4589530955202,Chestnut Hill
273,70174,1,Government Center,519.3722190932132,Reservoir
274,70174,1,Lechmere,610.5,Reservoir
275,70174,1,North Station,331.6666666666667,Reservoir
276,70174,1,Park St,547.0,Reservoir
277,70175,0,Riverside,528.95338321704,Reservoir
278,70176,1,Government Center,521.9691306173877,Beaconsfield
279,70176,1,Lechmere,953.0,Beaconsfield
280,70176,1,North Station,389.3333333333333,Beaconsfield
281,70176,1,Park St,1090.0,Beaconsfield
282,70177,0,Riverside,533.7481595737222,Beaconsfield
283,70178,1,Government Center,520.2061660589837,Brookline Hills
284,70178,1,Lechmere,715.3333333333334,Brookline Hills
285,70178,1,North Station,149.0,Brookline Hills
286,70178,1,Park St,687.0,Brookline Hills
287,70179,0,Riverside,536.2155164297147,Brookline Hills
288,70180,1,Government Center,500.5303279782832,Brookline Village
289,70180,1,Lechmere,527.25,Brookline Village
290,70181,0,Riverside,519.7078056694759,Brookline Village
291,70182,1,Government Center,483.8543879024722,Longwood
292,70182,1,Lechmere,621.5,Longwood
293,70182,1,North Station,17.0,Longwood
294,70182,1,Park St,291.5,Longwood
295,70183,0,Riverside,516.3120870753174,Longwood
296,70186,1,Government Center,498.1096560153658,Fenway
297,70186,1,Lechmere,466.3333333333333,Fenway
298,70186,1,North Station,533.8333333333334,Fenway
299,70186,1,Park St,59.0,Fenway
300,70187,0,Riverside,519.6143655698963,Fenway
301,70196,0,Boston College,506.818587076505,Park Street
302,70197,0,Cleveland Circle,528.3197626034778,Park Street
303,70198,0,Riverside,527.491821495244,Park Street
304,70199,0,Heath St,528.5708865052783,Park Street
305,70200,1,Government Center,159.54681257213886,Park Street
306,70200,1,Lechmere,178.3356072874494,Park Street
307,70200,1,North Station,172.63229571984436,Park Street
308,70200,1,Park St,154.1346992595598,Park Street
309,70201,1,Government Center,185.7822858658181,Government Center
310,70201,1,Lechmere,247.5790958768008,Government Center
311,70201,1,North Station,251.55099873463485,Government Center
312,70201,1,Park St,218.5306919642857,Government Center
313,70202,0,Cleveland Circle,539.728997350815,Government Center
314,70202,0,Heath St,519.4071534897373,Government Center
315,70202,0,Riverside,576.0840685143462,Government Center
316,70203,1,Government Center,251.2258883248731,Haymarket
317,70203,1,Lechmere,300.38016626517407,Haymarket
318,70203,1,North Station,309.1319179128916,Haymarket
319,70203,1,Park St,299.6817518248175,Haymarket
320,70204,0,Cleveland Circle,571.6788535427057,Haymarket
321,70204,0,Heath St,501.8980118194188,Haymarket
322,70204,0,Riverside,1188.8842592592594,Haymarket
323,70205,1,Government Center,314.13106159895153,North Station
324,70205,1,Lechmere,445.5972352024922,North Station
325,70205,1,North Station,296.8799885156474,North Station
326,70205,1,Park St,283.3333333333333,North Station
327,70206,0,Cleveland Circle,567.2208349686028,North Station
328,70206,0,Heath St,498.41516208241336,North Station
329,70206,0,Riverside,1180.5333333333333,North Station
330,70207,1,Government Center,414.1814345991561,Science Park/West End
331,70207,1,Lechmere,558.8791863421721,Science Park/West End
332,70207,1,North Station,536.235761589404,Science Park/West End
333,70207,1,Park St,460.65,Science Park/West End
334,70208,0,Cleveland Circle,557.1869918699186,Science Park/West End
335,70208,0,Heath St,510.8655627510452,Science Park/West End
336,70208,0,Riverside,1217.7810650887575,Science Park/West End
337,70209,1,Government Center,575.025974025974,
338,70209,1,Lechmere,629.7413286302175,
339,70209,1,North Station,631.6439393939394,
340,70209,1,Park St,825.2222222222222,
341,70210,0,Cleveland Circle,537.0843373493976,
342,70210,0,Heath St,583.2488440009735,
343,70210,0,Riverside,1263.529411764706,
344,70211,0,Cleveland Circle,554.3429551366158,Saint Mary's Street
345,70212,1,Government Center,393.5,Saint Mary's Street
346,70212,1,North Station,596.9857727382131,Saint Mary's Street
347,70212,1,Park St,295.6,Saint Mary's Street
348,70213,0,Cleveland Circle,574.8798068674787,Hawes Street
349,70214,1,Government Center,450.0,Hawes Street
350,70214,1,Lechmere,1.0,Hawes Street
351,70214,1,North Station,627.4550231755956,Hawes Street
352,70214,1,Park St,463.0,Hawes Street
353,70215,0,Cleveland Circle,579.595605921591,Kent Street
354,70216,1,Government Center,452.3333333333333,Kent Street
355,70216,1,North Station,584.1249092756568,Kent Street
356,70216,1,Park St,502.5,Kent Street
357,70217,0,Cleveland Circle,556.0496996683596,Saint Paul Street
358,70218,1,Government Center,434.0,Saint Paul Street
359,70218,1,Lechmere,775.0,Saint Paul Street
360,70218,1,North Station,568.7038213562992,Saint Paul Street
361,70219,0,Cleveland Circle,534.8626028921024,Coolidge Corner
362,70220,1,Government Center,437.73333333333335,Coolidge Corner
363,70220,1,Lechmere,638.0,Coolidge Corner
364,70220,1,North Station,568.7526912181303,Coolidge Corner
365,70223,0,Cleveland Circle,544.2482313345697,Summit Avenue
366,70224,1,Government Center,488.5,Summit Avenue
367,70224,1,North Station,596.2755291869878,Summit Avenue
368,70225,0,Cleveland Circle,583.7521787315501,Brandon Hall
369,70226,1,Government Center,464.0833333333333,Brandon Hall
370,70226,1,North Station,636.6448704103672,Brandon Hall
371,70227,0,Cleveland Circle,556.7507196315487,Fairbanks Street
372,70228,1,Government Center,500.3571428571428,Fairbanks Street
373,70228,1,Lechmere,560.0,Fairbanks Street
374,70228,1,North Station,601.0330053712163,Fairbanks Street
375,70229,0,Cleveland Circle,526.2441669819649,Washington Square
376,70230,1,Government Center,410.5263157894737,Washington Square
377,70230,1,Lechmere,134.0,Washington Square
378,70230,1,North Station,553.9098797485652,Washington Square
379,70230,1,Park St,38.0,Washington Square
380,70231,0,Cleveland Circle,528.4915837715686,Tappan Street
381,70232,1,Government Center,533.4166666666666,Tappan Street
382,70232,1,North Station,559.9064642282034,Tappan Street
383,70233,0,Cleveland Circle,526.4143830559248,Dean Road
384,70234,1,Government Center,611.2666666666667,Dean Road
385,70234,1,North Station,569.5227043153468,Dean Road
386,70235,0,Cleveland Circle,542.1709608572246,Englewood Avenue
387,70236,1,Government Center,812.8571428571429,Englewood Avenue
388,70236,1,Lechmere,497.0,Englewood Avenue
389,70236,1,North Station,663.2944084502717,Englewood Avenue
390,70237,0,Cleveland Circle,908.9306794783804,Cleveland Circle
391,70238,1,Government Center,512.5111111111111,
392,70238,1,Lechmere,657.75,
393,70238,1,North Station,676.8533431197791,
394,70239,0,Heath St,525.1945630047935,Prudential
395,70240,1,Government Center,493.0,Prudential
396,70240,1,Lechmere,520.0835126355314,Prudential
397,70240,1,North Station,367.25,Prudential
398,70241,0,Heath St,530.8164808489613,Symphony
399,70242,1,Government Center,176.0,Symphony
400,70242,1,Lechmere,535.2244405586666,Symphony
401,70243,0,Heath St,541.7681259004765,Northeastern University
402,70244,1,Lechmere,516.1955888839876,Northeastern University
403,70244,1,North Station,490.0,Northeastern University
404,70245,0,Heath St,536.3351008131892,Museum of Fine Arts
405,70246,1,Lechmere,522.8424832110641,Museum of Fine Arts
406,70246,1,Park St,329.0,Museum of Fine Arts
407,70247,0,Heath St,545.693790149893,Longwood Medical Area
408,70248,1,Government Center,129.0,Longwood Medical Area
409,70248,1,Lechmere,538.3619539187649,Longwood Medical Area
410,70248,1,Park St,302.0,Longwood Medical Area
411,70249,0,Heath St,562.2735138674524,Brigham Circle
412,70250,1,Government Center,544.0,Brigham Circle
413,70250,1,Lechmere,625.4309927360774,Brigham Circle
414,70250,1,North Station,339.0,Brigham Circle
415,70250,1,Park St,120.0,Brigham Circle
416,70251,0,Heath St,658.7561095419379,Fenwood Road
417,70252,1,Lechmere,691.0453074433657,Fenwood Road
418,70253,0,Heath St,591.1104237858871,Mission Park
419,70254,1,Lechmere,596.0704797979798,Mission Park
420,70254,1,North Station,436.0,Mission Park
421,70254,1,Park St,230.0,Mission Park
422,70255,0,Heath St,625.2501945003354,Riverway
423,70256,1,Government Center,928.0,Riverway
424,70256,1,Lechmere,604.2488475702403,Riverway
425,70256,1,North Station,546.0,Riverway
426,70256,1,Park St,68.0,Riverway
427,70257,0,Heath St,684.0299001208729,Back of the Hill
428,70258,1,Lechmere,707.9809660856199,Back of the Hill
429,70260,0,Heath St,941.7860326894502,
430,70260,1,Lechmere,620.6362045289319,
431,70260,1,North Station,549.0,
432,70261,0,Mattapan,618.5331618735875,
433,70263,0,Mattapan,641.0875411064396,Cedar Grove
434,70264,1,Ashmont,630.3724676392028,Cedar Grove
435,70265,0,Mattapan,651.0272312703584,Butler
436,70266,1,Ashmont,619.1875956820412,Butler
437,70267,0,Mattapan,714.2930556542753,Milton
438,70268,1,Ashmont,556.3249413406049,Milton
439,70269,0,Mattapan,542.4441513032422,Central Avenue
440,70270,1,Ashmont,539.8417796378856,Central Avenue
441,70271,0,Mattapan,663.4358665832411,Valley Road
442,70272,1,Ashmont,637.106279352931,Valley Road
443,70273,0,Mattapan,626.4972112361829,Capen Street
444,70274,1,Ashmont,649.8560915780866,Capen Street
445,70275,0,Mattapan,202.33333333333331,
446,70278,0,Forest Hills,522.4580968648411,Assembly
447,70279,1,Oak Grove,518.1370400022086,Assembly
448,70838,0,Bowdoin,84.22222222222223,
